City_ID,City,Lat,Lng,Max Temp,Humidity,Cloudiness,Wind Speed,Country,Date
0,san clemente,33.427,-117.612,17.01,67,0,5.81,US,1712637445
1,codrington,-38.2667,141.9667,13.8,56,99,6.59,AU,1712637832
2,hailar,49.2,119.7,1.49,74,89,4.77,CN,1712637833
3,bredasdorp,-34.5322,20.0403,15.41,87,92,2.39,ZA,1712637834
4,dryden,49.7833,-92.7503,2.16,100,100,2.06,CA,1712637835
5,hauterive,46.0901,3.4459,9.42,91,100,2.94,FR,1712637836
6,mil'kovo,55.6078,37.7956,11.86,89,100,1.18,RU,1712637836
7,sumbawa besar,-8.5,117.4333,31.67,65,98,2.88,ID,1712637837
8,bamboo flat,11.7,92.7167,33.05,58,40,2.57,IN,1712637838
9,west island,-12.1568,96.8225,28.99,79,40,5.66,CC,1712637839
10,alta,69.9689,23.2717,-3.41,86,75,2.57,NO,1712637840
11,adamstown,-25.066,-130.1015,23.87,71,94,3.22,PN,1712637840
12,garbahaarrey,3.3289,42.2209,28.09,64,96,4.09,SO,1712637842
13,longyearbyen,78.2186,15.6401,-12.09,79,100,3.09,SJ,1712637843
14,saipan,15.1355,145.701,31.39,66,40,8.23,MP,1712637844
15,fortaleza,-3.7227,-38.5247,27.07,89,40,2.06,BR,1712637573
16,puerto natales,-51.7236,-72.4875,3.97,87,56,6.24,CL,1712637846
17,bilibino,68.0546,166.4372,-8.46,77,92,1.01,RU,1712637847
18,tsiombe,-25.3,45.4833,23.77,81,98,4.55,MG,1712637848
19,bethel,41.3712,-73.414,12.47,47,100,2.06,US,1712637593
20,ca mau,9.1769,105.15,37.86,31,99,6.06,VN,1712637621
21,san juan de miraflores,-12.1629,-76.9635,23.98,77,100,3.08,PE,1712637851
22,avarua,-21.2078,-159.775,27.03,83,75,5.14,CK,1712637758
23,minas de marcona,-15.2119,-75.1103,17.41,87,92,4.13,PE,1712637852
24,utrik,11.2278,169.8474,26.73,81,92,9.99,MH,1712637853
25,waitangi,-43.9535,-176.5597,14.9,82,87,2.24,NZ,1712637854
26,tiksi,71.6872,128.8694,-6.02,83,100,11.1,RU,1712637855
27,ribeira grande,38.5167,-28.7,17.1,96,73,6.71,PT,1712637855
28,la ronge,55.1001,-105.2842,6.14,65,100,0.0,CA,1712637856
29,piacabucu,-10.4056,-36.4344,26.16,86,8,2.47,BR,1712637857
30,hasaki,35.7333,140.8333,14.05,94,100,11.32,JP,1712637560
31,petropavlovsk-kamchatsky,53.0452,158.6483,2.47,82,75,4.0,RU,1712637651
32,port elizabeth,-33.918,25.5701,17.83,95,96,6.71,ZA,1712637616
33,port-aux-francais,-49.35,70.2167,8.27,91,100,17.25,TF,1712637861
34,hawaiian paradise park,19.5933,-154.9731,22.24,93,100,4.12,US,1712637862
35,mount isa,-20.7333,139.5,28.87,24,52,8.75,AU,1712637863
36,tura,25.5198,90.2201,34.38,24,83,2.9,IN,1712637620
37,barcelos,41.5388,-8.6151,7.73,92,10,1.77,PT,1712637812
38,hamilton,39.1834,-84.5333,17.5,84,40,3.6,US,1712637375
39,saint-joseph,-21.3667,55.6167,27.21,73,81,2.68,RE,1712637866
40,ta`u,-14.2336,-169.5144,29.03,78,75,5.16,AS,1712637867
41,mana,5.6592,-53.7767,25.98,82,22,4.25,GF,1712637868
42,sao jose da coroa grande,-8.8978,-35.1478,25.78,82,85,1.06,BR,1712637869
43,abashiri,44.0213,144.2697,-0.84,100,75,6.17,JP,1712637870
44,punta arenas,-53.15,-70.9167,4.06,81,75,4.12,CL,1712637407
45,west hoxton,-33.9167,150.85,18.78,77,99,5.81,AU,1712637871
46,tera,14.0078,0.7531,29.85,36,93,4.22,NE,1712637608
47,tame,6.461,-71.73,26.74,52,78,2.12,CO,1712637873
48,kodiak,57.79,-152.4072,-1.27,55,100,8.23,US,1712637874
49,isafjordur,66.0755,-23.124,-4.56,90,100,6.52,IS,1712637875
50,lander,42.833,-108.7307,3.77,48,0,3.09,US,1712637876
51,waat,51.1454,6.4958,15.5,89,100,2.57,DE,1712637877
52,pyin oo lwin,22.0333,96.4667,33.9,19,0,4.52,MM,1712637878
53,cheremushki,52.8356,91.3944,15.94,50,74,1.12,RU,1712637879
54,iskateley,67.6803,53.1512,-15.55,97,96,1.79,RU,1712637879
55,albany,42.6001,-73.9662,9.4,67,74,2.24,US,1712637674
56,mejit,10.2753,170.8646,26.84,83,98,10.63,MH,1712637881
57,ploneour-lanvern,47.9,-4.2833,9.16,71,20,8.23,FR,1712637882
58,filadelfia,39.9523,-75.1638,13.98,67,75,2.57,US,1712637663
59,blackmans bay,-43.0167,147.3167,15.07,50,69,4.67,AU,1712637883
60,cockburn town,21.4612,-71.1419,24.13,62,100,7.76,TC,1712637884
61,yellowknife,62.456,-114.3525,-0.71,80,20,3.09,CA,1712637885
62,louisville,38.2542,-85.7594,19.01,82,0,4.12,US,1712637818
63,morinville,53.8001,-113.652,8.77,49,75,1.54,CA,1712637702
64,georgetown,5.4112,100.3354,32.96,66,20,2.57,MY,1712637771
65,jamestown,42.097,-79.2353,10.8,66,0,2.06,US,1712637783
66,eyl,7.9803,49.8164,29.0,60,95,3.81,SO,1712637889
67,timbuktu,16.7735,-3.0074,29.81,29,87,4.21,ML,1712637627
68,constantia,44.1833,28.65,11.5,69,2,3.16,RO,1712637891
69,lebu,-37.6167,-73.65,11.33,92,100,6.48,CL,1712637892
70,punta cana,18.5818,-68.4043,25.87,73,40,5.14,DO,1712637893
71,pudasjarvi,65.3833,26.9167,0.81,96,98,3.2,FI,1712637894
72,xinyuan,37.3,99.0,1.39,65,100,2.64,CN,1712637895
73,la passe,45.5549,-0.8967,9.99,74,9,8.02,FR,1712637896
74,mar del plata,-38.0023,-57.5575,19.49,93,75,4.12,AR,1712637736
75,fort bragg,35.139,-79.006,17.91,59,100,3.6,US,1712637709
76,wailua homesteads,22.0669,-159.378,26.24,85,75,10.29,US,1712637898
77,keflavik,64.0049,-22.5624,1.24,69,0,9.26,IS,1712637899
78,ushuaia,-54.8,-68.3,1.81,75,0,1.54,AR,1712637701
79,cabo san lucas,22.8909,-109.9124,20.61,75,100,1.34,MX,1712637673
80,poronaysk,49.2167,143.1167,3.53,45,76,6.55,RU,1712637902
81,ust'-kut,56.7938,105.7672,0.38,72,99,1.67,RU,1712637902
82,anadyr,64.75,177.4833,-8.72,61,75,5.0,RU,1712637754
83,berezovyy,51.6667,135.7,6.57,40,72,1.12,RU,1712637904
84,salinopolis,-0.6136,-47.3561,25.62,88,96,1.02,BR,1712637905
85,kruisfontein,-34.0033,24.7314,16.6,95,100,7.11,ZA,1712637906
86,owase,34.0667,136.2,13.08,65,86,4.64,JP,1712637907
87,weno,7.4515,151.8468,31.97,74,40,4.63,FM,1712637908
88,hell-ville,-13.4,48.2667,25.93,79,75,0.0,MG,1712637909
89,kempsey,-31.0833,152.8333,20.34,70,62,2.37,AU,1712637765
90,iqaluit,63.7506,-68.5145,-14.15,71,20,4.63,CA,1712637911
91,kapuskasing,49.4169,-82.4331,9.0,43,100,2.57,CA,1712637912
92,jambi city,-1.6,103.6167,28.23,88,89,0.86,ID,1712637912
93,amga,60.8953,131.9608,-0.56,94,100,1.63,RU,1712637913
94,sragen,-7.4264,111.0222,30.15,74,95,1.56,ID,1712637914
95,roven'ky,48.0833,39.3776,15.09,50,49,1.82,UA,1712637915
96,khorugh,37.4897,71.553,-2.94,52,55,0.35,TJ,1712637918
97,olonkinbyen,70.9221,-8.7187,-3.59,68,69,7.63,SJ,1712637919
98,kailua-kona,19.6406,-155.9956,25.98,82,75,2.57,US,1712637911
99,gulnar,36.3415,33.3992,6.65,83,100,3.15,TR,1712637922
100,laascaanood,8.4774,47.3597,23.96,69,88,3.92,SO,1712637924
101,san jose del cabo,23.0589,-109.6977,20.6,67,40,1.03,MX,1712637704
102,vorgashor,67.5833,63.95,-19.61,97,99,1.64,RU,1712637927
103,stanley,54.868,-1.6985,8.21,97,75,3.6,GB,1712637928
104,badger,64.8,-147.5333,1.14,72,75,2.57,US,1712637740
105,tolanaro,-25.0319,46.9987,23.04,94,40,2.57,MG,1712637930
106,susuman,62.7833,148.1667,-6.68,74,99,1.79,RU,1712637932
107,alofi,-19.0595,-169.9187,26.94,89,40,3.6,NU,1712637934
108,atafu village,-8.5421,-172.5159,30.27,74,18,4.6,TK,1712637936
109,ulsteinvik,62.3432,5.8487,8.07,77,72,4.62,NO,1712637937
110,gadzhiyevo,69.2551,33.3362,-3.49,93,99,3.56,RU,1712637939
111,filingue,14.3521,3.3168,28.59,18,79,3.69,NE,1712637941
112,beyneu,45.3167,55.2,14.69,45,48,1.65,KZ,1712637679
113,gorontalo,0.5412,123.0595,29.93,76,64,1.39,ID,1712637944
114,borskoye,53.0333,51.7167,10.01,81,100,3.57,RU,1712637945
115,voznesenskoye,54.89,42.7569,9.02,97,100,0.45,RU,1712637947
116,longgang,37.6508,120.3286,8.11,57,52,6.8,CN,1712637948
117,karratha,-20.7377,116.8463,27.06,39,98,12.03,AU,1712637917
118,boueni,-12.9025,45.0761,28.99,71,98,3.11,YT,1712637951
119,karaton,-6.3424,106.1045,33.04,52,89,2.57,ID,1712637952
120,ilulissat,69.2167,-51.1,-10.99,73,100,2.06,GL,1712637954
121,port mathurin,-19.6833,63.4167,26.74,76,42,3.1,MU,1712637956
122,buenaventura,3.8801,-77.0312,24.36,96,100,1.07,CO,1712637958
123,kourou,5.1552,-52.6478,26.03,90,45,2.51,GF,1712637960
124,papatowai,-46.5619,169.4708,17.02,67,100,3.44,NZ,1712637961
125,nelson bay,-32.7167,152.15,22.27,64,77,5.81,AU,1712637962
126,lubango,-14.9172,13.4925,15.92,100,100,1.03,AO,1712637780
127,mammoth lakes,37.6485,-118.9721,-1.52,52,0,1.54,US,1712637965
128,nemuro,43.3236,145.575,0.08,96,100,14.1,JP,1712637967
129,las navas del marques,40.6024,-4.3345,0.91,88,51,5.75,ES,1712637968
130,al lagowa,11.4,29.1333,26.82,10,79,4.62,SD,1712637969
131,divnoye,45.9089,43.3547,12.64,55,1,4.85,RU,1712637971
132,kyakhta,50.3508,106.4494,8.89,37,72,1.43,RU,1712637973
133,grytviken,-54.2811,-36.5092,1.73,94,100,2.35,GS,1712637974
134,mangrol,21.1167,70.1167,30.08,48,0,3.68,IN,1712637975
135,al ain city,24.1917,55.7606,28.79,24,0,2.57,AE,1712637767
136,labrador city,52.9463,-66.9114,-6.05,73,100,4.12,CA,1712637977
137,popondetta,-8.7537,148.2534,28.35,89,66,1.97,PG,1712637978
138,nadi,-17.8,177.4167,29.0,79,100,2.57,FJ,1712637765
139,panama city beach,30.1766,-85.8055,18.34,74,0,3.09,US,1712637795
140,puerto ayora,-0.7393,-90.3518,25.27,91,37,2.55,EC,1712637981
141,kamloops,50.6665,-120.3192,10.55,40,75,3.09,CA,1712637774
142,petrolina,-9.3986,-40.5008,25.03,88,75,3.09,BR,1712637703
143,ghanzi,-21.5667,21.7833,16.04,28,65,3.31,BW,1712637985
144,pisco,-13.7,-76.2167,22.03,83,99,4.63,PE,1712637855
145,invercargill,-46.4,168.35,18.08,67,100,3.22,NZ,1712637989
146,whitehorse,60.7161,-135.0538,3.43,44,75,4.12,CA,1712637991
147,edinburgh of the seven seas,-37.0676,-12.3116,18.98,91,100,13.02,SH,1712637992
148,namibe,-15.1961,12.1522,21.55,80,100,1.22,AO,1712637951
149,san antonio de pale,-1.4014,5.6325,27.97,77,100,3.17,GQ,1712637994
150,usogorsk,63.4106,48.6872,-8.52,96,93,2.67,RU,1712637995
151,al jawf,29.5,38.75,17.44,49,0,6.25,SA,1712637996
152,jawf al maqbabah,13.8378,45.8349,25.33,48,87,1.29,YE,1712637997
153,brisas de zicatela,15.8369,-97.0419,26.86,73,39,2.94,MX,1712637998
154,sabang,5.8933,95.3214,29.33,73,100,5.76,ID,1712637999
155,kidal,18.4411,1.4078,26.41,9,30,1.17,ML,1712638000
156,enewetak,11.3474,162.3373,27.36,80,100,9.38,MH,1712638001
157,fale old settlement,-9.3852,-171.2468,30.3,74,10,5.03,TK,1712638003
158,lodja,-3.4833,23.4333,21.0,96,97,0.55,CD,1712638004
159,la villa del rosario,10.3258,-72.3134,27.53,66,87,7.46,VE,1712638006
160,troitsko-pechorsk,62.7084,56.1964,-6.84,92,46,3.58,RU,1712638007
161,harper,4.375,-7.7169,27.55,82,44,3.0,LR,1712638008
162,grand falls-windsor,48.9332,-55.6649,-1.94,83,100,2.24,CA,1712638002
163,summerside,46.3959,-63.7876,3.16,75,34,5.66,CA,1712638009
164,ladario,-19.0047,-57.6017,26.55,74,100,0.46,BR,1712638010
165,esmeralda,21.8525,-78.1169,22.53,77,77,5.21,CU,1712638012
166,al muwayh,22.4333,41.7583,24.05,41,90,3.02,SA,1712638013
167,twon-brass,4.3151,6.2418,28.41,76,96,2.89,NG,1712638014
168,kill devil hills,36.0307,-75.676,15.55,67,0,5.14,US,1712638016
169,biharamulo,-2.6319,31.3089,17.08,93,98,0.59,TZ,1712638017
170,crane,31.3974,-102.3501,19.82,77,71,8.2,US,1712638019
171,igarka,67.4667,86.5833,-9.99,89,100,5.36,RU,1712638020
172,banda aceh,5.5577,95.3222,32.13,60,54,3.78,ID,1712637759
173,laguna,38.421,-121.4238,15.98,46,0,3.6,US,1712638023
174,whitby,54.4877,-0.615,10.17,89,100,1.79,GB,1712637978
175,necochea,-38.5473,-58.7368,18.59,64,47,5.64,AR,1712637809
176,aasiaat,68.7098,-52.8699,-14.76,100,93,3.02,GL,1712638026
177,buchach,49.0625,25.388,12.39,69,90,2.07,UA,1712638027
178,kulhudhuffushi,6.6221,73.07,29.06,73,64,2.94,MV,1712638028
179,sarangani,5.4033,125.4636,27.32,81,92,10.52,PH,1712638028
180,thompson,55.7435,-97.8558,0.09,55,20,1.03,CA,1712637740
181,labuan,5.2767,115.2417,32.2,74,20,2.06,MY,1712638030
182,chibougamau,49.9168,-74.3659,-0.21,55,0,1.54,CA,1712637798
183,bafq,31.6128,55.4107,23.68,24,97,2.53,IR,1712638032
184,happy valley-goose bay,53.3168,-60.3315,-3.83,68,100,5.14,CA,1712637756
185,kingston,17.997,-76.7936,28.53,73,20,3.6,JM,1712637779
186,tashtyp,52.7939,89.8983,14.87,44,72,0.95,RU,1712638035
187,revda,56.801,59.9303,2.54,97,100,4.34,RU,1712638036
188,santyoku,37.4406,129.1708,8.68,52,12,5.44,KR,1712638037
189,sitka,57.0531,-135.33,3.94,81,75,5.14,US,1712638038
190,katsuura,35.1333,140.3,19.01,92,100,16.79,JP,1712638039
191,menongue,-14.6585,17.691,17.61,93,84,0.92,AO,1712638040
192,port shepstone,-30.7414,30.455,20.82,78,62,3.31,ZA,1712638041
193,ialibu,-6.2821,143.9935,17.95,96,100,0.89,PG,1712638042
194,odda,60.0691,6.5457,7.65,98,100,2.52,NO,1712638042
195,yuzhno-kurilsk,44.0306,145.8556,1.32,98,100,11.85,RU,1712638043
196,margaret river,-33.95,115.0667,23.63,39,12,1.07,AU,1712638044
197,napier,-39.4833,176.9167,21.82,60,0,3.58,NZ,1712637910
198,talnakh,69.4865,88.3972,-12.66,82,96,4.65,RU,1712638046
199,hermanus,-34.4187,19.2345,16.04,85,46,0.64,ZA,1712638047
200,jati,24.3539,68.2671,36.45,9,25,5.3,PK,1712638049
201,khandyga,62.6667,135.6,-1.95,89,100,1.03,RU,1712638050
202,kiruna,67.8557,20.2251,1.51,75,0,7.2,SE,1712638052
203,vilyuchinsk,52.9306,158.4028,3.29,100,100,1.4,RU,1712638053
204,ghadamis,30.1337,9.5007,21.58,9,100,4.03,LY,1712638054
205,vrangel',42.7297,133.0839,7.09,38,0,4.03,RU,1712638055
206,greymouth,-42.4667,171.2,15.88,85,100,5.56,NZ,1712638055
207,zavodoukovsk,56.5042,66.5515,-0.08,89,100,3.39,RU,1712638056
208,lihue,21.9789,-159.3672,26.58,81,75,10.29,US,1712637878
209,suva,-18.1416,178.4415,25.71,100,75,2.06,FJ,1712637802
210,robertsport,6.7533,-11.3686,26.84,92,77,2.69,LR,1712638059
211,isla vista,34.4133,-119.861,17.94,56,0,6.69,US,1712638059
212,pioner,55.3166,85.9508,6.69,100,40,2.0,RU,1712638060
213,altai,46.3722,96.2583,3.29,59,71,6.06,MN,1712638061
214,san juan pueblo,15.5833,-87.2333,26.42,93,77,2.19,HN,1712638062
215,gueckedou,8.6667,-10.25,22.15,99,28,1.82,GN,1712638063
216,petauke,-14.2426,31.3253,19.81,85,100,1.74,ZM,1712638064
217,ust-nera,64.5667,143.2,-5.34,83,100,2.89,RU,1712638067
218,ghormach,35.7306,63.7826,20.17,31,100,3.64,AF,1712638068
219,balasore,21.4942,86.9317,33.47,25,90,1.91,IN,1712638069
220,argo,37.6333,22.7333,13.99,50,0,2.42,GR,1712638070
221,kiziltepe,37.1933,40.585,17.2,51,75,6.69,TR,1712638071
222,mahina,-17.5065,-149.489,28.87,74,75,2.06,PF,1712638072
223,tulun,54.5611,100.5792,5.93,68,62,4.1,RU,1712638074
224,gargalianoi,37.0667,21.6333,15.2,38,0,2.17,GR,1712638075
225,muana,-1.5283,-49.2167,23.69,98,100,2.46,BR,1712638076
226,harstad,68.799,16.5293,3.78,98,100,6.71,NO,1712638077
227,prince george,53.9166,-122.753,4.69,92,100,5.14,CA,1712638077
228,lincoln city,44.9582,-124.0179,10.76,97,100,3.13,US,1712638079
229,qaqortoq,60.7167,-46.0333,-4.86,77,100,3.27,GL,1712638080
230,augusto correa,-1.0217,-46.635,23.68,100,100,0.61,BR,1712638082
231,mogocha,53.7333,119.7667,8.35,29,12,4.28,RU,1712638083
232,lulea,65.5842,22.1547,-2.96,93,0,1.03,SE,1712638085
233,sinop,41.7711,34.8709,11.3,68,15,1.05,TR,1712638086
234,sao paulo de olivenca,-3.3783,-68.8725,23.26,98,90,0.13,BR,1712638087
235,luderitz,-26.6481,15.1594,13.73,86,1,4.51,NA,1712638089
236,ma'an,26.9775,110.7211,20.74,62,91,2.44,CN,1712638090
237,tashtagol,52.7657,87.8894,10.85,96,96,1.79,RU,1712638090
238,vadso,70.0744,29.7487,-1.91,93,75,2.57,NO,1712638091
239,gizo,-8.103,156.8419,28.57,77,95,3.11,SB,1712638092
240,boa vista,2.8197,-60.6733,28.99,54,20,3.6,BR,1712638093
241,klyuchi,52.2667,79.1667,13.12,63,100,6.42,RU,1712638094
242,vallegrande,-18.4897,-64.1069,14.42,98,100,2.07,BO,1712638095
243,port alfred,-33.5906,26.891,17.32,97,97,2.24,ZA,1712638096
244,puerto rico,-26.796,-55.024,20.96,91,14,0.4,AR,1712638052
245,sao joao da barra,-21.6403,-41.0511,24.65,85,96,5.21,BR,1712638098
246,altamont,42.2068,-121.7372,7.77,69,0,1.54,US,1712638099
247,san fernando,15.0286,120.6898,34.85,26,35,3.7,PH,1712638101
248,anta,25.15,76.3,35.28,22,98,4.65,IN,1712638101
249,shijiang,27.0819,110.7933,20.97,63,90,2.07,CN,1712638102
250,verkhnevilyuysk,63.4453,120.3167,-3.08,76,25,2.0,RU,1712638103
251,nikolayevsk-on-amure,53.1406,140.73,-0.44,87,99,1.79,RU,1712638104
252,fortuna,40.5982,-124.1573,11.19,95,100,4.12,US,1712638054
253,san patricio,28.017,-97.5169,24.91,91,100,8.7,US,1712638105
254,closepet,12.7167,77.3,33.17,24,93,4.0,IN,1712638106
255,ojocaliente,21.8775,-102.6754,17.21,27,43,1.7,MX,1712638107
256,phalaborwa,-23.943,31.1411,20.6,93,100,2.53,ZA,1712638108
257,bolama,11.5833,-15.4667,23.19,60,53,2.45,GW,1712638108
258,daru,-9.0763,143.2092,29.41,75,100,1.78,PG,1712638109
259,st. john's,47.5649,-52.7093,-0.68,93,100,11.32,CA,1712637992
260,rongelap,11.1635,166.8941,26.99,82,100,9.87,MH,1712638111
261,mzimba,-11.9,33.6,18.64,92,78,1.98,MW,1712638111
262,lakeland,28.0395,-81.9498,18.93,80,0,3.09,US,1712637998
263,pocito,-31.6833,-68.5833,22.92,50,0,5.41,AR,1712638113
264,tralee,52.2704,-9.7026,6.98,69,20,8.17,IE,1712638114
265,hualien city,23.9769,121.6044,21.67,86,100,5.3,TW,1712637957
266,hithadhoo,-0.6,73.0833,29.21,71,100,1.88,MV,1712638117
267,bodo,67.28,14.405,5.99,90,75,3.6,NO,1712638118
268,yaren,-0.5472,166.916,27.41,85,94,7.97,NR,1712638119
269,suntar,62.1444,117.6319,-2.24,82,98,2.07,RU,1712638119
270,takoradi,4.8845,-1.7554,27.46,87,91,3.01,GH,1712638120
271,laojunmiao,39.8333,97.7333,11.38,16,100,3.59,CN,1712638121
272,udachny,66.4167,112.4,-5.31,70,100,10.8,RU,1712638122
273,flying fish cove,-10.4217,105.6791,29.82,70,40,5.14,CX,1712638123
274,kananga,-5.8958,22.4178,20.18,96,80,0.6,CD,1712638124
275,mantua,45.1667,10.7833,14.58,93,100,0.89,IT,1712638125
276,murzzuschlag,47.6,15.6833,10.49,88,64,2.45,AT,1712638125
277,antofagasta,-23.65,-70.4,18.6,88,65,1.79,CL,1712638126
278,glace bay,46.1969,-59.957,-1.19,90,20,0.0,CA,1712638127
279,morehead city,34.7229,-76.726,16.68,81,0,3.6,US,1712638128
280,coahuayana de hidalgo,18.7,-103.6583,20.47,80,96,1.62,MX,1712638129
281,nakskov,54.8373,11.1284,8.97,99,100,7.14,DK,1712638130
282,touros,-5.1989,-35.4608,25.07,91,99,1.93,BR,1712638023
283,priob'ye,62.5206,65.5964,-4.99,80,95,4.58,RU,1712638132
284,howrah,22.5892,88.3103,32.0,45,40,4.12,IN,1712638133
285,mount gambier,-37.8333,140.7667,14.32,50,94,4.35,AU,1712638133
286,mazatlan,23.2167,-106.4167,19.95,78,100,1.54,MX,1712638134
287,la'ie,21.6477,-157.9253,25.98,75,5,2.24,US,1712638135
288,ad-damazin,11.7891,34.3592,28.16,13,50,3.19,SD,1712638136
289,tazacorte,28.629,-17.9293,18.97,73,75,9.26,ES,1712638136
290,saint-pierre,-21.3393,55.4781,27.82,57,0,1.54,RE,1712638137
291,san luis de la loma,17.2706,-100.8939,24.41,73,85,2.97,MX,1712638138
292,biryusinsk,55.9634,97.8235,8.76,54,69,3.46,RU,1712638139
293,college,64.8569,-147.8028,1.18,71,40,2.57,US,1712638140
294,alice springs,-23.7,133.8833,24.01,30,20,6.17,AU,1712637967
295,sandpoint,48.2766,-116.5533,7.46,84,100,0.0,US,1712638032
296,arraial do cabo,-22.9661,-42.0278,25.05,84,99,8.26,BR,1712638142
297,monkey bay,-14.0728,34.9201,24.27,83,95,3.73,MW,1712638143
298,kaoma,-14.7833,24.8,18.62,96,88,1.69,ZM,1712638144
299,hirara,24.8,125.2833,22.92,94,75,9.77,JP,1712638145
300,tharangambadi,11.0319,79.8528,31.78,54,54,5.16,IN,1712638146
301,bardai,11.65,7.2333,24.29,57,83,5.02,NG,1712638147
302,soio,-6.1349,12.3689,26.37,87,90,1.91,AO,1712638148
303,hammerfest,70.6634,23.6821,-1.75,93,100,1.03,NO,1712638150
304,emerald,-23.5333,148.1667,31.86,30,32,6.38,AU,1712638150
305,tesistan,20.7833,-103.4833,20.57,35,82,1.99,MX,1712638151
306,guerrero negro,27.9769,-114.0611,14.73,68,2,6.9,MX,1712638082
307,stephenville,32.2207,-98.2023,21.44,93,100,4.63,US,1712638153
308,kem',64.9555,34.5793,1.35,100,100,3.09,RU,1712638153
309,al bayda',32.7627,21.7551,10.66,77,2,7.19,LY,1712638154
310,aketi,2.7388,23.7833,22.45,91,52,0.52,CD,1712638155
311,waingapu,-9.6567,120.2641,29.56,74,100,2.36,ID,1712638156
312,murashi,59.3999,48.9615,2.19,96,100,1.7,RU,1712638157
313,jieshou,33.2634,115.3611,22.39,47,92,3.42,CN,1712638158
314,turbat,26.0023,63.044,29.75,22,88,1.38,PK,1712638158
315,chonchi,-42.6128,-73.8092,4.56,80,5,1.42,CL,1712637987
316,sandnessjoen,66.0217,12.6316,6.06,70,40,2.57,NO,1712638160
317,cambuci,-21.5753,-41.9111,21.95,94,92,0.28,BR,1712638161
318,kijang,35.2442,129.2139,15.85,56,2,10.61,KR,1712638162
319,puerto baquerizo moreno,-0.9,-89.6,25.48,88,25,3.78,EC,1712638163
320,maintirano,-18.0667,44.0167,27.76,76,5,1.33,MG,1712638164
321,bandar lampung,-5.4254,105.258,30.39,70,89,2.78,ID,1712638165
322,erdenet,49.0333,104.0833,6.37,66,100,1.83,MN,1712638166
323,beaufort west,-32.3567,22.583,13.0,83,100,4.52,ZA,1712638166
324,fomboni,-12.28,43.7425,28.82,76,100,3.35,KM,1712638167
325,mildura,-34.2,142.15,18.93,43,1,8.01,AU,1712638168
326,turmalina,-17.2856,-42.73,16.91,92,100,0.58,BR,1712638169
327,trairi,-3.2778,-39.2689,24.48,96,100,3.58,BR,1712638170
328,mancora,-4.1078,-81.0475,25.37,68,67,2.93,PE,1712638140
329,kon tum,14.35,108.0,38.3,20,72,5.1,VN,1712638171
330,buenavista,8.9769,125.4089,31.24,56,100,4.07,PH,1712638172
331,northam,51.0333,-4.2167,8.7,94,100,16.09,GB,1712638173
332,east london,-33.0153,27.9116,17.52,100,40,1.54,ZA,1712637933
333,hadibu,12.65,54.0333,27.92,64,86,1.07,YE,1712638174
334,abatskoye,56.2875,70.4555,2.87,81,100,3.45,RU,1712638175
335,och'amch'ire,42.7123,41.4686,14.21,70,22,1.28,GE,1712638176
336,chos malal,-37.3781,-70.2709,15.73,55,100,1.45,AR,1712638177
337,vorkuta,67.5,64.0,-19.16,96,99,1.68,RU,1712638178
338,brezina,33.0989,1.2608,15.72,42,86,11.75,DZ,1712638179
339,kargasok,59.0556,80.8572,-0.58,97,100,3.13,RU,1712638180
340,letlhakeng,-24.0944,25.0298,14.89,59,76,2.87,BW,1712638181
341,shakawe,-18.3667,21.85,19.58,89,63,1.65,BW,1712638181
342,lescar,43.3333,-0.4167,8.17,87,75,6.69,FR,1712638182
343,kerikeri,-35.2268,173.9474,21.62,83,95,2.9,NZ,1712638183
344,magadan,59.5667,150.8,-3.04,85,85,0.72,RU,1712638184
345,richards bay,-28.783,32.0377,20.84,86,5,6.8,ZA,1712638184
346,dunedin,-45.8742,170.5036,15.45,80,100,1.79,NZ,1712638061
347,ocean city,39.2776,-74.5746,11.17,80,100,1.79,US,1712638186
348,mweka,-4.85,21.5667,20.0,92,87,0.37,CD,1712638187
349,moramanga,-18.9333,48.2,20.98,81,88,0.31,MG,1712638188
350,alamosa,37.4695,-105.87,-1.01,69,75,0.0,US,1712638189
351,sao vicente,-23.9631,-46.3919,25.1,26,60,0.45,BR,1712638136
352,beitbridge,-22.2167,30.0,19.34,92,100,1.82,ZW,1712638191
353,nagqu,31.5,92.0,2.76,20,100,4.4,CN,1712638191
354,scottsburg,38.6856,-85.7702,18.21,76,93,3.25,US,1712638192
355,al bardiyah,31.7561,25.0865,14.76,72,0,4.26,LY,1712638193
356,kotli,33.5167,73.9167,27.25,20,1,0.69,PK,1712638194
357,aiquile,-18.2041,-65.1807,14.64,88,100,1.49,BO,1712638195
358,aroma,15.8167,36.1333,26.43,8,55,5.15,SD,1712638196
359,santa terezinha,-29.9002,-50.0904,21.97,87,0,0.95,BR,1712638198
360,cape canaveral,28.4058,-80.6048,22.21,68,0,5.14,US,1712638199
361,svirsk,53.0858,103.3325,6.95,53,16,2.81,RU,1712638200
362,rio grande,-32.035,-52.0986,19.41,90,5,2.94,BR,1712638184
363,remire-montjoly,4.9167,-52.2667,26.02,94,56,1.03,GF,1712638201
364,fuchucho,34.5667,133.2333,14.92,71,85,6.37,JP,1712638202
365,anna regina,7.2644,-58.5077,26.85,75,27,4.89,GY,1712638203
366,umba,66.6871,34.3429,-2.53,97,99,1.66,RU,1712638203
367,rio gallegos,-51.6226,-69.2181,5.03,56,0,8.23,AR,1712637964
368,kyzyl-suu,42.3414,78.0056,10.31,39,84,2.87,KG,1712638205
369,mbala,-8.8402,31.3659,16.72,93,94,1.4,ZM,1712638206
370,lompoc,34.6391,-120.4579,11.68,91,0,6.69,US,1712638166
371,wynyard,-41.0,145.7167,14.66,50,47,5.89,AU,1712638208
372,alesd,47.0667,22.4167,10.23,67,87,1.81,RO,1712638209
373,jepelacio,-6.1167,-76.95,17.19,100,100,0.23,PE,1712638210
374,colonia,50.9333,6.95,16.09,78,100,3.6,DE,1712638189
375,nuku'alofa,-21.1333,-175.2,27.19,83,75,5.14,TO,1712638213
376,bishkul,54.7803,69.1033,3.19,93,100,4.0,KZ,1712638214
377,kavaratti,10.5669,72.642,29.49,61,55,2.14,IN,1712638215
378,inirida,3.8653,-67.9239,23.95,79,30,1.15,CO,1712638215
379,westerland,54.9079,8.3033,11.12,100,100,7.2,DE,1712638035
380,camana,-16.6228,-72.7111,21.43,93,100,2.38,PE,1712638217
381,changping,40.2186,116.2197,14.8,20,99,4.41,CN,1712638217
382,santana,-0.0583,-51.1817,26.1,89,75,2.57,BR,1712638218
383,taseyevo,57.2169,94.8978,6.86,63,91,4.02,RU,1712638219
384,akureyri,65.6835,-18.0878,-0.04,93,100,3.09,IS,1712638220
385,prince rupert,54.3161,-130.3201,6.83,85,100,4.63,CA,1712638205
386,okulovka,58.4008,33.2908,7.53,83,99,1.76,RU,1712638222
387,hekimhan,38.818,37.9312,6.29,76,91,3.29,TR,1712638223
388,aras-asan,8.8908,126.3033,28.63,72,100,3.93,PH,1712638224
389,moyynkum,44.2914,72.9469,10.87,83,100,6.1,KZ,1712638224
390,tongchuanshi,35.0806,109.0897,20.68,35,99,5.66,CN,1712638225
391,nogliki,51.8333,143.1667,0.4,81,100,3.78,RU,1712638226
392,cesvaine,56.9667,26.3167,10.51,95,97,2.04,LV,1712638227
393,saint-philippe,-21.3585,55.7679,27.77,74,74,2.71,RE,1712638228
394,afaahiti,-17.75,-149.2833,27.93,83,97,5.52,PF,1712638229
395,datong,40.0936,113.2914,20.11,16,53,6.4,CN,1712638230
396,new norfolk,-42.7826,147.0587,16.07,54,83,4.15,AU,1712638230
397,sidi khaled,34.387,4.9879,20.91,16,77,2.85,DZ,1712638231
398,krasnyy yar,46.5331,48.3456,9.96,45,36,2.28,RU,1712638232
399,aykhal,66.0,111.5,-4.99,81,92,11.3,RU,1712638233
400,yeppoon,-23.1333,150.7333,30.88,47,20,4.73,AU,1712638234
401,bereznik,62.8551,42.7072,0.12,99,100,1.72,RU,1712638234
402,mamuju,-2.6748,118.8885,29.93,67,100,1.93,ID,1712638235
403,neiafu,-18.65,-173.9833,27.38,89,75,5.14,TO,1712638236
404,kristiansund,63.1115,7.732,6.36,52,0,1.54,NO,1712638236
405,papao,-17.75,-149.55,28.82,79,100,4.73,PF,1712638237
406,ancud,-41.8697,-73.8203,6.28,70,10,4.05,CL,1712638238
407,brookings,44.3114,-96.7984,5.1,94,100,5.14,US,1712638240
408,kannod,22.6667,76.7333,33.36,33,19,4.45,IN,1712638241
409,la palma,33.8464,-118.0467,19.34,64,0,2.57,US,1712638085
410,buckhannon,38.994,-80.232,16.49,83,100,1.54,US,1712638243
411,trzebnica,51.3108,17.0633,15.77,71,27,3.58,PL,1712638245
412,alness,57.696,-4.2551,6.03,91,100,1.46,GB,1712638245
413,baruun-urt,46.6806,113.2792,11.91,31,100,2.09,MN,1712638246
414,selfoss,63.9331,-20.9971,-0.53,57,100,6.97,IS,1712638247
415,veraval,20.9,70.3667,31.04,43,0,3.06,IN,1712638248
416,geraldton,-28.7667,114.6,33.23,16,8,7.2,AU,1712638248
417,boguchany,58.3814,97.4531,0.48,72,100,4.47,RU,1712638249
418,juan griego,11.0817,-63.9655,25.36,84,63,4.36,VE,1712638250
419,buka,40.8108,69.1986,15.98,63,100,6.3,UZ,1712638251
420,cadale,2.7603,46.3222,29.49,70,89,3.74,SO,1712638252
421,santa cruz,-17.8,-63.1667,23.7,94,75,2.57,BO,1712638218
422,southside,33.9245,-86.0225,16.78,97,40,0.0,US,1712637981
423,aljezur,37.3191,-8.8033,8.28,78,0,5.69,PT,1712638254
424,la gi,10.6667,107.7833,32.52,53,61,9.45,VN,1712638255
425,clinton,42.587,-82.9199,14.01,79,0,2.06,US,1712638255
426,francisco i. madero,29.7059,-107.8043,6.1,37,0,8.83,MX,1712638256
427,zungeru,9.8128,6.1558,28.19,60,66,2.62,NG,1712638257
428,orange,33.7,-117.7675,18.27,64,0,0.89,US,1712638148
429,abhar,36.1468,49.218,13.71,49,54,1.41,IR,1712638260
430,wyndham vale,-37.8869,144.6241,16.27,66,83,7.17,AU,1712638261
431,lata,40.1629,-8.3327,5.6,92,0,1.37,PT,1712638262
432,thomson,33.4707,-82.5046,16.89,78,0,3.09,US,1712637920
433,hilo,19.7297,-155.09,22.38,94,100,4.12,US,1712638263
434,san juan,-31.5375,-68.5364,23.12,48,0,5.37,AR,1712638092
435,old town,50.087,14.4202,14.38,88,0,3.09,CZ,1712638265
436,praia da vitoria,38.7333,-27.0667,17.14,94,75,7.06,PT,1712638268
437,orapa,-21.2833,25.3667,20.74,88,62,2.26,BW,1712638270
438,melekhovo,56.2773,41.2935,9.84,93,67,2.24,RU,1712638271
439,kudahuvadhoo,2.6708,72.8944,29.18,70,61,2.31,MV,1712638272
440,ballina,-28.8667,153.5667,28.77,56,62,1.24,AU,1712638273
441,carnarvon,-24.8667,113.6333,32.54,28,0,5.2,AU,1712638274
442,bonthe,7.5264,-12.505,26.09,87,39,1.68,SL,1712638276
443,glendale,33.5387,-112.186,19.16,31,20,5.14,US,1712638047
444,tot'ma,59.9747,42.7642,6.37,90,100,3.7,RU,1712638003
445,maxixe,-23.8597,35.3472,23.9,88,40,0.0,MZ,1712638281
446,soligalich,59.0778,42.2864,4.82,84,97,3.61,RU,1712638282
447,maddela,16.3414,121.6849,34.61,44,57,1.28,PH,1712638283
448,chul'man,56.8479,124.9104,-4.85,85,100,1.34,RU,1712638284
449,akhtubinsk,48.2795,46.1722,16.1,46,95,3.41,RU,1712638285
450,ponta delgada,37.7333,-25.6667,18.44,100,75,3.6,PT,1712638286
451,dudinka,69.4058,86.1778,-12.43,92,99,6.2,RU,1712638287
452,bel ombre,-4.6167,55.4167,25.91,89,40,1.03,SC,1712638289
453,tucumcari,35.1717,-103.725,11.08,37,0,5.14,US,1712638156
454,kyaukse,21.6,96.1333,37.0,34,20,2.57,MM,1712638296
455,broome,42.2506,-75.833,11.21,66,0,3.6,US,1712638297
456,besisahar,28.2313,84.3761,26.73,10,0,4.35,NP,1712638299
457,queenstown,-31.8976,26.8753,12.06,76,15,2.35,ZA,1712638062
458,bozoum,6.3193,16.3799,21.21,78,39,2.09,CF,1712638301
459,smithers,54.7804,-127.1743,5.18,52,100,1.54,CA,1712638302
460,fukuecho,32.6881,128.8419,18.2,68,40,9.26,JP,1712638304
461,isangel,-19.55,169.2667,30.06,70,40,3.09,VU,1712638305
462,port saint john's,-31.6229,29.5448,20.12,84,39,1.75,ZA,1712638308
463,acapulco de juarez,16.8634,-99.8901,24.9,83,20,4.12,MX,1712638034
464,acajutla,13.5928,-89.8275,28.14,80,74,3.1,SV,1712638082
465,meulaboh,4.1363,96.1285,29.97,67,92,2.08,ID,1712638312
466,namtsy,62.7161,129.6658,-2.12,86,100,2.87,RU,1712638314
467,wichita falls,33.9137,-98.4934,17.08,59,75,10.8,US,1712638160
468,homer,59.6425,-151.5483,1.94,70,75,4.02,US,1712638316
469,zhicheng,30.2956,111.5047,22.42,54,69,3.08,CN,1712638317
470,oum hadjer,13.2954,19.6966,27.79,13,70,3.99,TD,1712638318
471,oranjemund,-28.55,16.4333,13.87,91,1,2.51,NA,1712638319
472,choyr,46.3611,108.3611,11.17,40,30,2.61,MN,1712638320
473,achinsk,56.2694,90.4993,9.83,65,94,4.92,RU,1712638321
474,villa gesell,-37.2639,-56.973,16.14,93,27,5.49,AR,1712638322
475,sarmiento,-45.5882,-69.07,5.32,48,17,3.01,AR,1712638323
476,mata-utu,-13.2816,-176.1745,29.81,75,99,5.42,WF,1712638324
477,kushiro,42.975,144.3747,3.53,100,75,6.17,JP,1712638262
478,tirebolu,41.0069,38.8139,12.26,75,79,1.61,TR,1712638326
479,poteau,35.0537,-94.6236,19.86,82,75,0.0,US,1712638327
480,dmitrovsk-orlovskiy,52.505,35.1464,13.3,79,100,2.86,RU,1712638328
481,hpa-an,16.8906,97.6333,42.14,25,0,0.09,MM,1712638329
482,miles city,46.4083,-105.8406,4.54,81,0,4.63,US,1712638330
483,nishinoomote,30.7333,131.0,16.31,94,75,2.57,JP,1712638330
484,orland,39.7474,-122.1964,15.17,60,3,2.39,US,1712638068
485,kuqa,41.7278,82.9364,18.03,25,18,2.07,CN,1712638332
486,milford haven,51.7128,-5.0341,6.81,94,100,16.61,GB,1712638333
487,salalah,17.0151,54.0924,28.05,74,40,1.03,OM,1712638334
488,zdvinsk,54.7021,78.661,7.63,75,100,4.81,RU,1712638335
489,port macquarie,-31.4333,152.9167,23.65,52,55,5.82,AU,1712638336
490,cururupu,-1.8283,-44.8683,23.01,100,100,0.15,BR,1712638336
491,calvinia,-31.4707,19.776,11.69,93,93,4.11,ZA,1712638338
492,rauma,61.1272,21.5113,2.02,99,100,2.69,FI,1712638339
493,taghazout,30.5426,-9.7112,13.43,62,0,0.36,MA,1712638341
494,labasa,-16.4167,179.3833,26.61,89,100,2.45,FJ,1712638342
495,toliara,-23.35,43.6667,25.68,66,52,1.19,MG,1712638343
496,kovalam,8.3667,76.9967,33.05,66,20,3.6,IN,1712638345
497,vila franca do campo,37.7167,-25.4333,18.27,99,93,2.65,PT,1712638348
498,post,33.1909,-101.3782,12.76,94,19,7.58,US,1712638349
499,campina verde,-19.5356,-49.4864,22.18,73,52,2.65,BR,1712638350
500,barghat,22.0333,79.7167,29.08,44,17,5.14,IN,1712638351
501,jardim do serido,-6.5844,-36.7744,24.55,83,98,1.37,BR,1712638351
502,panaba,21.2833,-88.2667,23.86,71,0,5.92,MX,1712638352
503,selenice,40.5306,19.6358,14.46,70,7,2.06,AL,1712638354
504,kapurthala,31.3794,75.3847,34.05,8,47,1.16,IN,1712638355
505,bubaque,11.2833,-15.8333,25.18,66,69,5.2,GW,1712638356
506,kapit,2.0167,112.9333,35.17,49,55,0.91,MY,1712638357
507,asipovichy,53.2933,28.6422,12.99,83,7,1.85,BY,1712638358
508,plettenberg bay,-34.0527,23.3716,17.68,98,100,2.19,ZA,1712638359
509,taltal,-25.4,-70.4833,17.39,84,18,1.12,CL,1712638360
510,siwa oasis,29.2041,25.5195,15.69,70,0,3.07,EG,1712638361
511,yugorsk,61.3133,63.3319,-5.06,98,99,2.96,RU,1712638362
512,castro,-24.7911,-50.0119,16.71,98,25,1.34,BR,1712638363
513,port douglas,-16.4833,145.4667,28.53,69,98,2.43,AU,1712638464
514,seydi,39.4816,62.9137,17.22,30,100,7.27,TM,1712638469
515,kayangel,8.0823,134.7173,28.41,73,95,5.83,PW,1712638471
516,nyurba,63.2842,118.3319,-2.73,74,28,2.22,RU,1712638473
517,cidreira,-30.1811,-50.2056,21.75,89,1,1.11,BR,1712638475
518,gembu,6.7,11.2667,17.98,87,100,1.31,NG,1712638477
519,kibakwe,-6.7167,36.3667,19.63,89,98,0.5,TZ,1712638479
520,togur,58.3631,82.8265,-1.03,82,100,3.13,RU,1712638482
521,horta,38.5333,-28.6333,16.68,96,79,7.6,PT,1712638483
522,sechura,-5.5569,-80.8222,23.9,70,45,5.43,PE,1712638202
523,kameshkovo,56.3481,41.0047,9.84,93,80,2.25,RU,1712638486
524,kenora,49.8167,-94.4337,3.54,100,100,2.06,CA,1712638490
525,kuhdasht,33.535,47.6061,17.87,59,99,2.84,IR,1712638491
526,orangeburg,33.4918,-80.8557,14.91,81,0,1.54,US,1712638493
527,zhanaozen,43.3,52.8,15.02,39,77,4.4,KZ,1712638495
528,swift current,50.2834,-107.8014,3.45,70,0,4.63,CA,1712638497
529,haiku-pauwela,20.9219,-156.3051,22.8,76,40,9.26,US,1712638499
530,quang ngai,15.1167,108.8,34.11,43,61,5.45,VN,1712638499
531,port lincoln,-34.7333,135.8667,16.38,53,66,6.1,AU,1712638521
532,floro,61.5996,5.0328,8.04,76,75,4.12,NO,1712638522
533,reggane,26.7158,0.1714,28.06,11,0,1.69,DZ,1712638538
534,ak-suu,42.4995,78.527,9.83,40,80,2.41,KG,1712638539
535,pokhara,28.2333,83.9833,27.73,8,0,3.82,NP,1712638540
536,parfino,57.9731,31.6481,9.56,80,100,1.34,RU,1712638541
537,'ain el berd,35.3639,-0.5128,14.57,77,40,6.17,DZ,1712638542
538,orange walk,17.8333,-88.8333,23.42,99,15,1.47,BZ,1712638543
539,port-gentil,-0.7193,8.7815,27.43,81,100,1.88,GA,1712638544
540,corumba,-19.0092,-57.6533,26.48,75,100,0.61,BR,1712638306
541,labytnangi,66.6572,66.4183,-15.9,82,1,3.08,RU,1712638545
542,villefontaine,45.6125,5.1456,8.79,93,100,4.63,FR,1712638546
543,severo-yeniseyskiy,60.3725,93.0408,0.73,91,100,3.09,RU,1712638548
544,maryborough,-25.5333,152.7,27.84,51,100,3.29,AU,1712638549
545,seosan,36.7817,126.4522,17.5,42,0,3.72,KR,1712638550
546,san juan del sur,11.2529,-85.8705,27.17,74,50,8.37,NI,1712638551
547,mairi,-11.7114,-40.1489,21.37,98,59,1.87,BR,1712638455
548,tangalle,6.024,80.7911,31.09,47,99,4.16,LK,1712638553
549,niafunke,15.9322,-3.9906,30.09,30,46,4.53,ML,1712638554
550,apartado,7.883,-76.6259,22.81,96,100,0.45,CO,1712638555
551,saldanha,-33.0117,17.9442,15.03,87,5,7.08,ZA,1712638557
552,soe,-9.8607,124.284,24.26,89,78,1.07,ID,1712638558
553,souillac,-20.5167,57.5167,27.97,81,55,2.67,MU,1712638559
554,quelimane,-17.8786,36.8883,25.56,92,79,0.56,MZ,1712638561
555,saint-benoit,-21.038,55.7194,28.06,72,66,3.7,RE,1712638562
556,nizhniy odes,63.6445,54.856,-7.86,74,19,2.91,RU,1712638564
557,ola,59.5833,151.2833,-2.7,87,89,1.33,RU,1712638565
558,mount pleasant,32.7941,-79.8626,16.1,94,0,0.0,US,1712638274
559,uturoa,-16.7333,-151.4333,28.49,82,95,5.78,PF,1712638567
560,pangody,65.85,74.4859,-14.98,88,18,6.38,RU,1712638567
561,den burg,53.0542,4.7972,11.65,93,100,7.72,NL,1712638568
562,urussu,54.5981,53.4631,7.89,93,89,4.56,RU,1712638569
563,kapa'a,22.0752,-159.319,25.99,83,75,10.29,US,1712638570
564,seme,15.1942,-12.9448,27.34,19,0,4.34,SN,1712638571
565,bandon,51.7469,-8.7425,5.77,65,16,8.28,IE,1712638572
566,dogansehir,38.0919,37.8789,5.59,91,99,3.99,TR,1712638573
567,kattivakkam,13.2167,80.3167,32.28,56,79,4.85,IN,1712638573
568,isiro,2.7739,27.616,19.18,98,98,1.01,CD,1712638574
569,ciudad madero,22.2667,-97.8333,25.59,91,34,5.41,MX,1712638319
570,myeik,12.4333,98.6,32.65,58,85,2.38,MM,1712638576
571,portland,45.5234,-122.6762,13.02,78,100,2.24,US,1712637772
572,lhuentse,27.6679,91.1839,20.49,40,87,1.85,BT,1712638577
573,saudarkrokur,65.7461,-19.6394,-5.32,89,96,2.55,IS,1712638578
574,nova sintra,14.8667,-24.7167,22.67,73,0,11.29,CV,1712638579
575,puerto deseado,-47.7503,-65.8938,5.52,48,16,7.09,AR,1712638580
576,pimentel,-6.8367,-79.9342,26.16,57,0,6.17,PE,1712638581
577,santa quiteria,-4.3319,-40.1567,22.68,98,98,0.67,BR,1712638582
578,ouro preto do oeste,-10.7481,-62.2158,22.42,96,72,1.48,BR,1712638582
579,olhao,37.0286,-7.8411,10.94,65,0,1.54,PT,1712638583
580,reyes,-14.3167,-67.3833,24.1,94,100,1.14,BO,1712638584
581,amungan,15.3652,119.9582,30.31,63,58,5.25,PH,1712638584
582,riberalta,-10.9833,-66.1,23.52,98,99,1.08,BO,1712638467
583,houghton,47.1219,-88.569,8.71,89,100,2.57,US,1712638474
584,sylva,58.0348,56.7635,5.65,97,100,3.47,RU,1712638586
585,kartaly,53.0522,60.6467,4.45,92,98,7.15,RU,1712638587
586,katsuren-haebaru,26.3369,127.8719,24.01,63,75,9.77,JP,1712638588
587,sao pedro do sul,-29.6206,-54.1789,20.86,91,95,1.3,BR,1712638335
588,challapata,-18.9,-66.7667,11.7,56,99,1.41,BO,1712638589
589,inhambane,-23.865,35.3833,23.99,88,40,0.0,MZ,1712638589
590,mournies,35.4764,24.0092,16.57,82,40,1.54,GR,1712638590
591,alaghsas,17.0187,8.0168,25.47,14,86,5.75,NE,1712638592
